stop_id,stop_code,stop_name,stop_desc,stop_lat,stop_lon,zone_id,stop_url,location_type
S2672,oki_aek_007,石垣港,,24.337087,124.155529,S2672,,
S2670,oki_aek_005,竹富港,,24.336153,124.093425,S2670,,
S2667,oki_aek_002,小浜港,,24.344448,123.991678,S2667,,
S2669,oki_aek_004,黒島港,,24.253421,124.001548,S2669,,
S2666,oki_aek_001,大原港,,24.272069,123.883778,S2666,,
S2671,oki_aek_006,上原港,,24.418314,123.800426,S2671,,
S2668,oki_aek_003,波照間港,,24.066567,123.766050,S2668,,
